[{"id":"p8","title":"Japanese Temple","image":{"src":"japanese-temple.jpg","alt":"Ancient Japanese temple surrounded by autumn foliage."},"lat":34.9949,"lon":135.785},{"id":"p7","title":"Northern Lights","image":{"src":"northern-lights.jpg","alt":"Dazzling display of the Northern Lights in a starry sky."},"lat":64.9631,"lon":-19.0208},{"id":"p3","title":"Himalayan Peaks","image":{"src":"majestic-mountains.jpg","alt":"The sun setting behind snow-capped peaks of majestic mountains."},"lat":27.9881,"lon":86.925},{"id":"p9","title":"Great Barrier Reef","image":{"src":"great-barrier-reef.jpg","alt":"Vibrant coral formations of the Great Barrier Reef underwater."},"lat":-18.2871,"lon":147.6992},{"id":"p13","title":"Taj Mahal","image":{"src":"taj-mahal.jpg","alt":"The iconic Taj Mahal reflecting in its surrounding waters during sunrise."},"lat":27.1751,"lon":78.0421}]